{
    "places": [
        {"name": "New Delhi", "latitude": 28.6139, "longitude": 77.2090, "population": 22000000, "critical_conditions": 5000},
        {"name": "Mumbai", "latitude": 19.0760, "longitude": 72.8777, "population": 20400000, "critical_conditions": 3000},
        {"name": "Kolkata", "latitude": 22.5726, "longitude": 88.3639, "population": 14600000, "critical_conditions": 2000},
        {"name": "Bangalore", "latitude": 12.9716, "longitude": 77.5946, "population": 12000000, "critical_conditions": 1500},
        {"name": "Chennai", "latitude": 13.0827, "longitude": 80.2707, "population": 10000000, "critical_conditions": 1000},
        {"name": "Hyderabad", "latitude": 17.3850, "longitude": 78.4867, "population": 10000000, "critical_conditions": 1200},
        {"name": "Ahmedabad", "latitude": 23.0225, "longitude": 72.5714, "population": 8000000, "critical_conditions": 700},
        {"name": "Pune", "latitude": 18.5204, "longitude": 73.8567, "population": 7000000, "critical_conditions": 500},
        {"name": "Surat", "latitude": 21.1702, "longitude": 72.8311, "population": 6000000, "critical_conditions": 600},
        {"name": "Jaipur", "latitude": 26.9124, "longitude": 75.7873, "population": 4000000, "critical_conditions": 400},
        {"name": "Lucknow", "latitude": 26.8467, "longitude": 80.9462, "population": 3500000, "critical_conditions": 350},
        {"name": "Kanpur", "latitude": 26.4499, "longitude": 80.3319, "population": 3000000, "critical_conditions": 300},
        {"name": "Nagpur", "latitude": 21.1458, "longitude": 79.0882, "population": 2500000, "critical_conditions": 250},
        {"name": "Indore", "latitude": 22.7196, "longitude": 75.8577, "population": 2000000, "critical_conditions": 200},
        {"name": "Patna", "latitude": 25.5941, "longitude": 85.1376, "population": 1800000, "critical_conditions": 180},
        {"name": "Vadodara", "latitude": 22.3072, "longitude": 73.1812, "population": 1600000, "critical_conditions": 160},
        {"name": "Bhopal", "latitude": 23.2599, "longitude": 77.4126, "population": 1500000, "critical_conditions": 150},
        {"name": "Chandigarh", "latitude": 30.7333, "longitude": 76.7794, "population": 1000000, "critical_conditions": 120},
        {"name": "Coimbatore", "latitude": 11.0168, "longitude": 76.9558, "population": 2500000, "critical_conditions": 300},
        {"name": "Mysore", "latitude": 12.2958, "longitude": 76.6394, "population": 1000000, "critical_conditions": 100},
        {"name": "Vijayawada", "latitude": 16.5065, "longitude": 80.6480, "population": 1500000, "critical_conditions": 180},
        {"name": "Tiruchirappalli", "latitude": 10.7905, "longitude": 78.7047, "population": 900000, "critical_conditions": 50},
        {"name": "Nashik", "latitude": 19.9975, "longitude": 73.7908, "population": 2000000, "critical_conditions": 150},
        {"name": "Vishakhapatnam", "latitude": 17.6869, "longitude": 83.2185, "population": 2000000, "critical_conditions": 180},
        {"name": "Raipur", "latitude": 21.2514, "longitude": 81.6296, "population": 1200000, "critical_conditions": 100},
        {"name": "Guwahati", "latitude": 26.1445, "longitude": 91.7362, "population": 1000000, "critical_conditions": 120},
        {"name": "Shillong", "latitude": 25.5788, "longitude": 91.8837, "population": 400000, "critical_conditions": 50},
        {"name": "Agra", "latitude": 27.1767, "longitude": 78.0081, "population": 1800000, "critical_conditions": 150},
        {"name": "Bareilly", "latitude": 28.3587, "longitude": 79.4151, "population": 2000000, "critical_conditions": 180},
        {"name": "Ghaziabad", "latitude": 28.6692, "longitude": 77.4538, "population": 2500000, "critical_conditions": 250},
        {"name": "Faridabad", "latitude": 28.4089, "longitude": 77.3178, "population": 1400000, "critical_conditions": 100},
        {"name": "Noida", "latitude": 28.5355, "longitude": 77.3910, "population": 1000000, "critical_conditions": 80},
        {"name": "Kolhapur", "latitude": 16.7042, "longitude": 74.2437, "population": 600000, "critical_conditions": 50},
        {"name": "Kochi", "latitude": 9.9312, "longitude": 76.2673, "population": 2500000, "critical_conditions": 200},
        {"name": "Mangalore", "latitude": 12.9141, "longitude": 74.8560, "population": 700000, "critical_conditions": 80},
        {"name": "Aurangabad", "latitude": 19.8762, "longitude": 75.3433, "population": 1400000, "critical_conditions": 100},
        {"name": "Bhubaneswar", "latitude": 20.2961, "longitude": 85.8189, "population": 1000000, "critical_conditions": 90},
        {"name": "Jammu", "latitude": 32.7266, "longitude": 74.8570, "population": 1500000, "critical_conditions": 120},
        {"name": "Rajkot", "latitude": 22.3039, "longitude": 70.8022, "population": 1300000, "critical_conditions": 100},
        {"name": "Dibrugarh", "latitude": 27.4733, "longitude": 94.9050, "population": 150000, "critical_conditions": 20},
        {"name": "Kolkata", "latitude": 22.5726, "longitude": 88.3639, "population": 2000000, "critical_conditions": 300},
        {"name": "Bhopal", "latitude": 23.2599, "longitude": 77.4126, "population": 1800000, "critical_conditions": 180},
        {"name": "Gwalior", "latitude": 26.2183, "longitude": 78.1828, "population": 1500000, "critical_conditions": 150}
    ]
}
